City_ID,City,Country,Latitude,Longitude,Max Temp,Humidity,Cloudiness,Wind Speed,Date
0,Porto-Novo,BJ,6.4990718,2.6253361,78.58,96,100,3.06,2023-09-24 20:34:07
1,Happy Valley-Goose Bay,CA,53.2964352,-60.3111895,34.32,86,20,6.91,2023-09-24 20:34:08
2,Taiohae,FR,-8.899131,-140.15592044103448,74.75,77,2,18.39,2023-09-24 20:34:08
3,Perry,US,41.8386737,-94.1069211,67.59,72,100,3.44,2023-09-24 20:34:09
4,Keskusta,FI,61.4649006,24.0659379,46.6,100,87,6.58,2023-09-24 20:34:09
5,Port Lincoln,AU,-34.7211905,135.8592218,61.41,61,26,11.07,2023-09-24 20:34:10
6,Edinburgh of the Seven Seas,SH,-37.0675894,-12.3108303,59.4,90,100,35.03,2023-09-24 20:34:10
7,Invercargill City,NZ,-46.4118465,168.3470632,58.01,47,1,1.99,2023-09-24 20:34:11
8,Port-aux-Français,FR,-49.3497607,70.2199565,35.15,60,21,22.84,2023-09-24 20:34:11
9,Sisimiut,GL,66.9371906,-53.6664816,35.44,43,100,5.46,2023-09-24 20:34:12
10,Margaret River,AU,-33.9531776,115.0769369,61.02,49,6,3.71,2023-09-24 20:34:12
11,Ribeira Grande,PT,37.8225227,-25.5194914,64.81,99,20,3.44,2023-09-24 20:34:13
12,Grytviken,GS,-54.2806481,-36.5098,17.8,82,20,10.11,2023-09-24 20:34:13
13,Tiksi,RU,71.636604,128.868546,36.39,98,100,6.53,2023-09-24 20:34:14
14,Rio Piracicaba,BR,-19.928889,-43.173889,70.3,62,78,1.99,2023-09-24 20:34:14
15,City of Georgetown,GY,6.8137426,-58.1624465,79.09,83,95,5.23,2023-09-24 20:34:15
16,Papatowai,NZ,-46.5618677,169.470842,53.01,56,0,9.71,2023-09-24 20:34:16
17,Udachny,RU,66.411768,112.2517294,57.79,54,48,8.99,2023-09-24 20:34:16
18,Acará,BR,-1.961388,-48.1987043,73.31,90,1,2.3,2023-09-24 20:34:17
19,Lebu,CL,-37.6099644,-73.6559477,45.81,84,0,7.4,2023-09-24 20:34:17
20,Olonkin City,NO,70.9224474,-8.7159894,38.28,76,28,12.62,2023-09-24 20:34:18
21,Yellowknife,CA,62.4540807,-114.377385,46.17,96,100,16.11,2023-09-24 20:34:18
22,Badger,US,42.614418,-94.1461643,62.51,82,0,3.44,2023-09-24 20:34:19
23,Ingeniero Jacobacci,AR,-41.3303941,-69.5471016,39.97,66,1,6.06,2023-09-24 20:34:19
24,Puerto San Carlos,BO,-12.6607539,-63.5500203,81.86,40,10,2.91,2023-09-24 20:34:20
25,Mount Isa,AU,-20.7289898,139.4931522,89.46,23,3,11.5,2023-09-24 20:34:20
26,City of Albany,US,42.6511674,-73.754968,57.69,90,100,3.44,2023-09-24 20:34:21
27,Hermanus,ZA,-34.4175,19.2361111,55.83,94,100,34.76,2023-09-24 20:34:21
28,Kulachi,PK,31.9299926,70.4592265,82.74,57,0,4.85,2023-09-24 20:34:22
29,El Granada,US,37.5028532,-122.469515,60.12,79,75,11.5,2023-09-24 20:34:23
30,Okhotsk,RU,59.3643921,143.2410816,50.09,47,3,13.53,2023-09-24 20:34:23
31,West Island,AU,-12.145866,96.84227540282865,80.65,74,40,14.97,2023-09-24 20:34:24
32,Astrakhan,RU,46.3498308,48.0326203,58.86,76,0,11.18,2023-09-24 20:34:24
33,Moçâmedes,AO,-15.195064,12.1458085,61.21,84,5,3.36,2023-09-24 20:34:25
34,Adamstown,PN,-25.066667,-130.100205,68.99,75,100,26.22,2023-09-24 20:34:25
35,Iqaluit,CA,63.74944,-68.521857,33.75,86,75,0.0,2023-09-24 20:34:26
36,Punta Arenas,CL,-53.1625688,-70.907822,41.29,75,75,12.66,2023-09-24 20:34:26
37,Huarmey,PE,-10.0687481,-78.152199,67.01,85,67,10.29,2023-09-24 20:34:27
38,Juneau,US,58.3019496,-134.419734,46.15,97,100,3.44,2023-09-24 20:34:27
39,Ísafjörður,IS,66.0726918,-23.1193541,43.23,94,100,28.48,2023-09-24 20:34:28
40,Talnakh,RU,69.4939889,88.3907607,35.58,99,100,13.65,2023-09-24 20:34:28
41,Hithadhoo,MV,1.7959425,73.38755195657038,82.11,73,38,1.81,2023-09-24 20:34:29
42,Iskateley,RU,67.676239,53.129215,44.24,86,100,6.08,2023-09-24 20:34:30
43,Bouar,LB,34.04581735,35.64217216877059,73.29,50,0,1.83,2023-09-24 20:34:30
44,Taulaga,US,-11.0552794,-171.0883983,82.15,78,94,26.13,2023-09-24 20:34:31
45,Fort St. John,CA,56.2524039,-120.846943,44.49,93,0,6.91,2023-09-24 20:34:31
46,Thompson,CA,55.743347,-97.863464,60.98,94,100,5.75,2023-09-24 20:34:32
47,Labrador City,CA,52.9422944,-66.9177291,42.71,87,100,8.05,2023-09-24 20:34:32
48,Wotho,MH,10.1672915,166.0078003,84.09,75,99,7.74,2023-09-24 20:34:33
49,Akureyri,IS,65.68390355,-18.11217559813441,42.19,81,100,11.5,2023-09-24 20:34:33
50,Waitangi,NZ,-35.2704653,174.0804593,58.37,80,100,5.35,2023-09-24 20:34:34
51,Wailua Homesteads,US,22.0580742,-159.3691081,79.09,69,0,18.41,2023-09-24 20:34:34
52,Ambon,FR,47.5542438,-2.5566945,65.7,89,98,8.21,2023-09-24 20:34:35
53,Hasaki,JP,35.7529706,140.8201321,79.2,63,98,15.68,2023-09-24 20:34:36
54,Ghadames,LY,30.1258404,9.4900658,71.71,61,1,11.25,2023-09-24 20:34:36
55,Petropavlovsk-Kamchatsky,RU,53.0199838,158.6471356,55.51,62,80,11.74,2023-09-24 20:34:37
56,College,CA,45.32664695,-75.83855656986515,60.17,89,20,9.22,2023-09-24 20:34:37
57,Kodiak,US,57.79,-152.4072222,51.31,54,0,4.61,2023-09-24 20:34:38
58,Shaowu City,CN,27.2021228,117.4768053,82.4,63,45,1.68,2023-09-24 20:34:38
59,Itoman,JP,26.106017,127.686066,89.37,65,75,13.8,2023-09-24 20:34:39
60,Jiménez,MX,27.1256227,-104.911862,82.09,34,74,7.09,2023-09-24 20:34:39
61,St. John's,CA,47.5614705,-52.7126162,54.21,94,100,10.36,2023-09-24 20:34:40
62,Piaçabuçu,BR,-10.4066897,-36.433654,75.51,86,10,10.29,2023-09-24 20:34:40
63,Chamdo City,CN,31.1449718,97.1698896,67.42,42,16,6.98,2023-09-24 20:34:41
64,Jamestown,SH,-15.9277296,-5.7160872,63.57,74,98,23.73,2023-09-24 20:34:42
65,Caconda,AO,-13.7388452,15.0619677,62.92,72,48,3.18,2023-09-24 20:34:42
66,Puerto Natales,CL,-51.7262003,-72.5059982,34.34,94,17,5.41,2023-09-24 20:34:43
67,Envira,BR,-7.437889,-70.028143,76.51,80,56,2.68,2023-09-24 20:34:43
68,Zelenogradsk,RU,54.9600365,20.4750188,44.65,100,0,4.47,2023-09-24 20:34:44
69,Port Mathurin,MU,-19.6808372,63.422113,72.18,75,76,19.28,2023-09-24 20:34:44
70,San Patricio,US,27.9695325,-97.7731720386266,84.31,72,0,13.98,2023-09-24 20:34:45
71,Xinqing,CN,23.2686154,110.7429995,87.78,67,8,7.85,2023-09-24 20:34:45
72,Bayda,LY,32.7609529,21.7577175,66.07,95,24,7.38,2023-09-24 20:34:46
73,Avarua,CK,-21.2074736,-159.7708145,71.58,60,75,13.8,2023-09-24 20:34:46
74,Alice Springs,AU,-23.6983884,133.8812885,87.35,10,2,12.66,2023-09-24 20:34:47
75,Koné,FR,-21.0608439,164.8619054,70.54,69,87,10.56,2023-09-24 20:34:47
76,Keflavík,IS,63.9997694,-22.5565373,50.43,71,75,11.5,2023-09-24 20:34:48
77,Cockburn Town,TC,21.4607723,-71.1399956,84.76,79,100,18.92,2023-09-24 20:34:49
78,Ilulissat,GL,69.2197127,-51.0986385,30.49,74,100,8.05,2023-09-24 20:34:49
79,Hawaiian Paradise Park,US,19.585022,-154.973145,77.25,81,20,8.05,2023-09-24 20:34:50
80,Río San Juan,DO,19.6431766,-70.0775117,80.94,85,65,8.95,2023-09-24 20:34:50
81,Masterton,NZ,-40.9495524,175.6594413,49.46,98,100,8.75,2023-09-24 20:34:51
82,Bandon,US,43.1195634,-124.4094086,59.81,88,100,5.99,2023-09-24 20:34:51
83,Saint-Philippe,CA,45.3584499,-73.4790045,60.1,68,6,4.61,2023-09-24 20:34:52
84,Staraya Stanitsa,RU,48.4066726,39.9387302,59.41,49,0,6.85,2023-09-24 20:34:53
85,Naracoorte,AU,-36.9575267,140.7413543,68.45,51,20,10.71,2023-09-24 20:34:53
86,Ust-Nera,RU,64.566376,143.237839,35.08,61,21,1.81,2023-09-24 20:34:54
87,Yakeshi City,CN,49.321229,121.278069,51.57,73,100,11.79,2023-09-24 20:34:54
88,El Calafate,AR,-50.3388712,-72.2720843,35.74,73,3,8.7,2023-09-24 20:34:55
89,Mount Pearl,CA,47.518910500000004,-52.814475267278404,53.08,94,100,10.36,2023-09-24 20:34:55
90,Tromsø,NO,69.651648,18.9558186,42.71,93,100,11.5,2023-09-24 20:34:56
91,Blackmans Bay,AU,-43.004684,147.3179857,56.57,76,66,13.44,2023-09-24 20:34:56
92,Awjilah,LY,29.140278,21.2975,77.09,37,0,8.68,2023-09-24 20:34:57
93,Constanța,RO,44.1767161,28.6507598,67.05,85,5,14.32,2023-09-24 20:34:58
94,Orbetello,IT,42.4380944,11.2107429,55.42,70,3,14.05,2023-09-24 20:34:58
95,Hudur,SO,4.1237042,43.8915563,72.48,69,63,14.0,2023-09-24 20:34:59
96,Siwa Oasis,EG,29.2034664,25.5192273,76.32,42,0,2.01,2023-09-24 20:34:59
97,Uturoa,FR,-16.74372575,-151.45941213237853,70.75,74,100,26.4,2023-09-24 20:35:00
98,Ulsteinvik,NO,62.3426629,5.84686,60.42,79,100,7.0,2023-09-24 20:35:00
99,Bilibino,RU,68.0550305,166.4448515,33.31,67,100,1.97,2023-09-24 20:35:01
100,Severnoye,UA,45.4621205,33.5722387,62.78,89,0,11.97,2023-09-24 20:35:01
101,Remire-Montjoly,FR,4.9050148,-52.2771642,77.0,94,0,2.3,2023-09-24 20:35:02
102,Rio Grande,AR,-53.7856766,-67.7016369,39.24,81,0,16.11,2023-09-24 20:35:03
103,Carinhanha,BR,-14.298524,-43.772349,80.01,31,60,4.47,2023-09-24 20:35:03
104,ʻOhonua,TO,-21.3413217,-174.956145,78.87,74,18,24.61,2023-09-24 20:35:04
105,Selfoss,IS,63.9368093,-21.0035319,47.16,77,100,12.53,2023-09-24 20:35:04
106,Portland,US,45.5202471,-122.674194,58.68,90,100,17.27,2023-09-24 20:35:05
107,Gulf Shores,US,30.2711224,-87.6893826,75.29,71,0,0.0,2023-09-24 20:35:06
108,Sandnessjøen,NO,66.0215451,12.6317232,46.45,76,40,5.75,2023-09-24 20:35:06
109,Tyre,LB,33.2721211,35.1964023,74.03,74,0,4.56,2023-09-24 20:35:07
110,Praia da Vitória,PT,38.739237599999996,-27.156264396780458,66.92,68,40,8.57,2023-09-24 20:35:07
111,Anadyr,RU,64.7316875,177.5060925,41.38,93,100,4.47,2023-09-24 20:35:08
112,Puerto Ayora,EC,-0.7471674,-90.3134198,75.2,87,14,1.01,2023-09-24 20:35:08
113,Miracema,BR,-21.4123651,-42.1965147,77.95,52,52,1.14,2023-09-24 20:35:09
114,Mejit,MH,10.28434145,170.8698842802093,83.5,77,97,20.69,2023-09-24 20:35:09
115,Ahau,FJ,-12.5010421,177.0478913,80.87,81,94,15.82,2023-09-24 20:35:10
116,Tall al Muzayri`ah,SY,34.9880073,36.9886882,71.26,58,0,5.03,2023-09-24 20:35:10
117,Ushuaia,AR,-54.806115899999995,-68.3184972880496,40.69,75,0,16.11,2023-09-24 20:35:11
118,Ceel Dheer,SO,3.84909,47.180309,78.06,80,52,14.83,2023-09-24 20:35:12
119,Brokopondo,SR,5.0567713,-54.9766916,76.03,98,99,3.98,2023-09-24 20:35:12
120,Kavieng,PG,-2.573474,150.795224,77.76,89,100,7.14,2023-09-24 20:35:13
121,Hirara,JP,24.926431,125.2411151,87.84,74,40,13.8,2023-09-24 20:35:13
122,Пангоды,RU,65.856575,74.494797,51.17,91,100,12.73,2023-09-24 20:35:14
123,San José del Guaviare,CO,2.5716141,-72.6426515,72.73,96,46,2.33,2023-09-24 20:35:14
124,Ocean Shores,US,46.973703,-124.156277,56.62,96,100,14.97,2023-09-24 20:35:15
125,Garcia,ES,41.1358922,0.6517192,64.47,79,47,1.12,2023-09-24 20:35:15
126,Codrington,GB,51.508188,-2.3936619,56.68,93,8,1.99,2023-09-24 20:35:16
127,Madingou,CG,-4.166012,13.5571517,76.41,79,42,4.09,2023-09-24 20:35:16
128,Rongelap,MH,11.16290265,166.8943032722801,83.88,77,53,12.55,2023-09-24 20:35:17
129,Sitka,US,57.0524973,-135.337612,53.42,71,100,6.91,2023-09-24 20:35:17
130,Carnarvon,AU,-24.8826131,113.6576486,71.6,62,40,23.89,2023-09-24 20:35:18
131,Newman,US,37.3139487,-121.0204222,68.94,51,63,5.93,2023-09-24 20:35:19
132,Vingt Cinq,MU,-10.3887066,56.6176598,77.45,72,10,21.16,2023-09-24 20:35:19
133,Zaragoza,ES,41.6521342,-0.8809428,61.66,52,0,2.3,2023-09-24 20:35:20
134,Baotou City,CN,40.6550078,109.8343979,68.61,43,35,6.69,2023-09-24 20:35:20
135,Waddan,LY,29.1613826,16.141311,70.41,76,8,9.42,2023-09-24 20:35:21
136,Turpan,CN,42.9400252,89.1840477,66.96,34,65,4.27,2023-09-24 20:35:21
137,Kingston,JM,17.9712148,-76.7928128,83.08,82,20,6.91,2023-09-24 20:35:22
138,Torrington,US,41.8006523,-73.1212214,56.73,97,100,5.99,2023-09-24 20:35:23
139,Bundamba,AU,-27.6044365,152.81148813595303,73.96,49,40,8.05,2023-09-24 20:35:23
140,Ha'il,SA,27.5208716,41.6985992,77.09,33,0,11.5,2023-09-24 20:35:24
141,Nemuro,JP,43.3301154,145.5829068,63.57,73,93,12.77,2023-09-24 20:35:24
142,Rey Bouba,CM,8.6712018,14.1768069,73.78,88,99,1.97,2023-09-24 20:35:25
143,Begamganj,IN,23.5996608,78.3411026,80.92,76,65,5.75,2023-09-24 20:35:25
144,Kalemie,CD,-5.9460209,29.1967172,72.82,73,37,3.27,2023-09-24 20:35:26
145,Santarém,PT,39.2363637,-8.6867081,59.04,92,0,3.02,2023-09-24 20:35:27
146,Ola,US,35.0323119,-93.2232345,74.44,95,3,1.23,2023-09-24 20:35:27
147,Madaoua,NE,14.0708,5.9553,83.35,53,98,7.78,2023-09-24 20:35:28
148,Sinabang,ID,2.479474,96.3805931,81.05,79,33,10.76,2023-09-24 20:35:28
149,La Passe,FR,46.20351905,-1.4601257909247631,59.14,79,2,8.19,2023-09-24 20:35:29
150,San Antonio Oeste,AR,-40.7302125,-64.9389955,53.85,47,43,10.6,2023-09-24 20:35:29
151,Byron Bay,AU,-28.6483333,153.6177778,74.71,50,27,8.55,2023-09-24 20:35:30
152,Longyearbyen,NO,78.2231558,15.6463656,26.87,80,75,5.75,2023-09-24 20:35:30
153,Šahy,SK,48.0694559,18.9493378,58.1,80,90,3.27,2023-09-24 20:35:31
154,Timbiquí,CO,2.7705138,-77.6643122,77.29,90,100,1.39,2023-09-24 20:35:31
155,Khandyga,RU,62.6477939,135.5750942,44.15,61,12,1.57,2023-09-24 20:35:32
156,Yeed,SO,4.5384212,43.0250009,75.47,67,90,17.2,2023-09-24 20:35:33
157,Ayoun el Atrous,MR,16.6597742,-9.6178808,87.21,43,57,12.77,2023-09-24 20:35:33
158,Talcahuano,CL,-36.7144863,-73.1141087,50.05,81,0,8.05,2023-09-24 20:35:34
159,Al Ghayzah,YE,13.55913,44.02574,68.74,75,47,7.38,2023-09-24 20:35:34
160,Kargasok,RU,59.0598053,80.8708719,40.55,58,53,6.4,2023-09-24 20:35:35
161,Gqeberha,ZA,-33.9617051,25.6207519,62.71,88,20,5.75,2023-09-24 20:35:35
162,Laie,US,21.6438449,-157.924442,80.73,73,2,10.0,2023-09-24 20:35:36
163,Macia,IT,45.372074,11.28381,56.52,74,9,3.96,2023-09-24 20:35:36
164,Acaraú,BR,-2.8869514,-40.1194713,78.67,84,16,14.94,2023-09-24 20:35:37
165,Hauterive,FR,48.4774049,0.1989853,53.76,62,53,3.13,2023-09-24 20:35:37
166,Aripuanã,BR,-10.175806,-59.4439663,78.15,52,16,1.05,2023-09-24 20:35:38
167,Changde,CN,29.034552,111.6928724,69.85,76,100,7.92,2023-09-24 20:35:39
168,Pahrump,US,36.2083012,-115.9839128,76.42,25,0,1.01,2023-09-24 20:35:39
169,Neelankarai,IN,12.9454955,80.2574692,82.45,83,40,11.5,2023-09-24 20:35:40
170,Murzuq,LY,25.9140852,13.9197199,76.93,21,0,1.21,2023-09-24 20:35:40
171,Aykhal,RU,65.9516363,111.4917562,52.48,68,47,18.05,2023-09-24 20:35:41
172,Stanley,FK,-51.6950575,-57.8491693,39.54,90,98,12.15,2023-09-24 20:35:41
173,Richards Bay,ZA,-28.7707857,32.0577775,68.14,94,93,6.96,2023-09-24 20:35:42
174,Bethel,US,60.7922222,-161.7558333,52.14,62,100,10.36,2023-09-24 20:35:42
175,Upper Hutt,NZ,-41.1240674,175.0699589,52.92,87,100,9.13,2023-09-24 20:35:43
176,Qalat,AF,32.1033645,66.9065768,65.28,17,0,0.2,2023-09-24 20:35:44
177,Dolores,ES,38.1392436,-0.769318,64.44,82,26,1.59,2023-09-24 20:35:44
178,Preobrazheniye,RU,42.901529,133.8988366,66.06,51,100,4.74,2023-09-24 20:35:45
179,Queenstown,NZ,-45.0321923,168.661,53.29,56,1,2.95,2023-09-24 20:35:45
180,Hamilton,CA,43.2560802,-79.8728583,63.21,85,75,11.5,2023-09-24 20:35:46
181,Nantucket Island,US,41.315731400000004,-70.00901408779944,61.75,99,100,15.99,2023-09-24 20:35:46
182,Pibor,SS,6.8011197,33.1297059,72.54,93,92,2.24,2023-09-24 20:35:47
183,Hurukamappu Yuzhno-Kurilsk,RU,44.0270756,145.8613722,63.14,76,84,11.77,2023-09-24 20:35:47
184,Basoko,CD,-3.291524,17.460055783543147,74.39,81,23,1.92,2023-09-24 20:35:48
185,Popondetta,PG,-8.7667424,148.2375057,82.44,74,100,3.94,2023-09-24 20:35:48
186,Kijang,ID,0.8501915,104.6027532,83.48,72,97,14.18,2023-09-24 20:35:49
187,Goldsboro,US,35.3848841,-77.9927651,69.26,94,0,0.0,2023-09-24 20:35:50
188,Valdivia,CL,-39.8141262,-73.2459859,37.49,99,4,1.83,2023-09-24 20:35:50
189,Whitecourt,CA,54.1424574,-115.6846504,51.03,62,20,0.0,2023-09-24 20:35:51
190,Al Kharijah,YE,15.35954,44.21674,67.46,32,12,7.99,2023-09-24 20:35:51
191,Omdurman,SD,15.6445536,32.4777311,88.12,50,100,20.18,2023-09-24 20:35:52
192,Mitsamiouli,KM,-11.3888547,43.2930126,71.87,88,20,3.44,2023-09-24 20:35:52
193,Sovetskiy,RU,61.362099,63.57354,57.88,77,14,8.99,2023-09-24 20:35:53
194,Cañete,ES,40.041797,-1.6490269,58.3,48,12,5.21,2023-09-24 20:35:53
195,Panaba,GW,12.1372516,-16.0390539,77.25,90,22,2.84,2023-09-24 20:35:54
196,Sosnovka,RU,56.2573802,51.2842677,57.96,54,0,5.28,2023-09-24 20:35:54
197,City of Mount Gambier,AU,-37.8246698,140.7820067624113,61.41,66,61,10.89,2023-09-24 20:35:55
198,Town of Slave Lake,CA,55.2810741,-114.7717876,46.4,87,0,3.44,2023-09-24 20:35:55
199,Maan,JO,30.2,35.7333329,68.18,33,0,1.99,2023-09-24 20:35:56
200,Cabo San Lucas,MX,22.8938884,-109.9200604,89.6,55,0,4.61,2023-09-24 20:35:56
201,Nagqu,CN,31.4786233,92.0498064,54.16,48,60,14.25,2023-09-24 20:35:57
202,Vorga-Shor,RU,67.581192,63.783737,44.44,80,100,9.82,2023-09-24 20:35:57
203,Yuxi,CN,30.9182867,111.9278808,69.73,76,98,9.13,2023-09-24 20:35:58
204,Enewetak,MH,11.3408906,162.3245486,83.89,78,100,11.48,2023-09-24 20:35:59
205,Puerto Deseado,AR,-47.7516166,-65.9013234,44.19,63,76,10.33,2023-09-24 20:35:59
206,Hadiboh,YE,12.651236,54.0236598,81.3,78,33,14.09,2023-09-24 20:36:00
207,Amarante,PT,41.2699316,-8.0804563,64.11,59,5,3.29,2023-09-24 20:36:00
208,Soe küla,EE,58.211850850000005,25.9364387637133,46.22,93,31,6.6,2023-09-24 20:36:01
209,Obigarm,TJ,38.7182807,69.7134525,60.87,42,7,2.01,2023-09-24 20:36:01
210,Jasło,PL,49.746962749999994,21.493576018400987,53.22,95,92,1.86,2023-09-24 20:36:02
211,Cole Harbour,CA,45.2593736,-61.2699661,51.62,92,100,5.01,2023-09-24 20:36:02
212,Bada,RU,51.391209,109.86763,58.68,65,49,4.79,2023-09-24 20:36:03
213,Sabang,ID,5.8927453,95.3225751,79.27,86,100,21.81,2023-09-24 20:36:04
214,Al Jawf,LY,24.1985492,23.2938969,72.0,27,0,5.46,2023-09-24 20:36:04
215,Aasiaat,GL,68.709588,-52.8512976,31.17,59,100,4.88,2023-09-24 20:36:05
216,Klyuchi,RU,56.318218,160.842178,50.68,64,86,1.86,2023-09-24 20:36:05
217,Seoul,KR,37.5666791,126.9782914,77.38,51,0,5.75,2023-09-24 20:36:06
218,Igarka,RU,67.4566185,86.5308425,35.56,77,100,28.39,2023-09-24 20:36:06
219,Lüderitz,NA,-26.6500086,15.157266,54.23,77,90,4.05,2023-09-24 20:36:07
220,Fenoarivo Atsinanana,MG,-17.382029,49.4099733,72.21,77,38,3.11,2023-09-24 20:36:07
221,Buenavista,ES,40.7672996,-5.6112011,44.55,41,1,2.59,2023-09-24 20:36:08
222,San José de Jáchal,AR,-30.2416005,-68.7465881,57.99,62,56,2.42,2023-09-24 20:36:08
223,Jardim Poxoréo,BR,-15.8284778,-54.3952866,81.81,37,28,2.98,2023-09-24 20:36:09
224,North Battleford,CA,52.776186,-108.300476,59.32,41,75,5.75,2023-09-24 20:36:09
225,Oral,KZ,51.2280064,51.40118765626732,57.22,77,0,0.0,2023-09-24 20:36:10
226,San Martín de los Andes,AR,-40.1288005,-71.23378822126672,32.02,92,6,1.01,2023-09-24 20:36:11
227,Lihue,US,21.9769622,-159.3687721,80.24,69,0,18.41,2023-09-24 20:36:11
228,Dawson Creek,CA,55.7605306,-120.2364453,42.58,70,0,0.0,2023-09-24 20:36:12
229,El Porvenir,MX,15.457515,-92.280304,46.04,96,53,1.1,2023-09-24 20:36:12
230,Umluj,SA,25.0302778,37.2622321,87.03,51,45,7.47,2023-09-24 20:36:13
231,Fort McMurray,CA,56.7291997,-111.3885221,58.51,72,100,5.75,2023-09-24 20:36:13
232,Puerto Aysén,CL,-45.4068167,-72.6976787,33.6,99,64,3.22,2023-09-24 20:36:14
233,Nova Sintra,CV,14.871066,-24.6956479,76.21,81,97,11.32,2023-09-24 20:36:14
234,Lerwick,GB,60.1531357,-1.1427296,57.22,81,99,27.83,2023-09-24 20:36:15
235,Fortuna,US,40.597407,-124.156034,64.74,73,0,11.5,2023-09-24 20:36:15
236,Kataba,UG,0.2517144,32.3996511,64.96,87,92,2.64,2023-09-24 20:36:16
237,West Samoset,US,27.4694847,-82.5567636,77.7,83,75,9.22,2023-09-24 20:36:16
238,Launceston,AU,-41.4340813,147.1373496,66.25,68,40,10.36,2023-09-24 20:36:17
239,Chernyshevskiy,RU,63.0155918,112.4642349,55.6,68,37,6.02,2023-09-24 20:36:17
240,Brattleboro,US,42.8507588,-72.5572913,57.16,91,100,1.99,2023-09-24 20:36:18
241,Northam,GB,51.0505743,-4.211341809956307,59.72,94,9,15.3,2023-09-24 20:36:19
242,Whitehorse,CA,60.721571,-135.054932,41.36,85,100,3.44,2023-09-24 20:36:19
243,Palang,ID,-6.93788135,112.15738820984582,92.39,41,48,4.68,2023-09-24 20:36:20
244,Vilyuysk,RU,63.754082,121.626549,57.42,67,79,5.17,2023-09-24 20:36:20
245,Siquijor,PH,9.2155864,123.5138212,91.51,73,32,15.61,2023-09-24 20:36:21
246,Samara,RU,53.198627,50.113987,55.53,45,0,2.98,2023-09-24 20:36:21
247,Mar del Plata,AR,-37.9977225,-57.5482703,43.43,82,0,4.61,2023-09-24 20:36:22
248,Katsuura,JP,35.1521846,140.3207449,76.59,58,82,16.17,2023-09-24 20:36:22
249,Qaqortoq,GL,60.718202,-46.0385214,34.25,55,26,4.54,2023-09-24 20:36:23
250,Port Alfred,ZA,-33.5981844,26.8914772,66.38,91,100,25.23,2023-09-24 20:36:23
251,Tannum Sands,AU,-23.9911035,151.3808714828221,73.09,48,65,15.77,2023-09-24 20:36:24
252,Puerto San José,GT,13.9246126,-90.8191844,79.18,87,100,12.24,2023-09-24 20:36:25
253,Cinisi,IT,38.1549428,13.1098412,71.17,70,40,14.97,2023-09-24 20:36:25
254,Vukovar,HR,45.3444116,19.0023817,60.58,94,100,4.61,2023-09-24 20:36:26
255,Tazovsky,RU,67.4735321,78.7149206,46.71,97,100,15.95,2023-09-24 20:36:26
256,Kirensk,RU,57.776356,108.116295,52.61,85,99,7.54,2023-09-24 20:36:27
257,Muxía,ES,43.1071193,-9.2181926,63.81,90,80,1.61,2023-09-24 20:36:27
258,Caleta de Carquín,PE,-11.0918364,-77.6283049,65.97,87,84,9.51,2023-09-24 20:36:28
259,Iringa,TZ,-7.7790973,35.6970528,55.22,77,56,4.72,2023-09-24 20:36:29
260,Siguatepeque,HN,14.5978089,-87.8353071,65.75,95,98,1.97,2023-09-24 20:36:29
261,Mahina,FR,-17.55802755,-149.4694362416536,68.99,69,75,4.61,2023-09-24 20:36:30
262,Latur,IN,18.3983393,76.562087,73.15,89,100,6.42,2023-09-24 20:36:30
263,Daru,PG,-9.069901,143.210029,78.3,81,100,15.66,2023-09-24 20:36:31
264,Kampene,CD,-3.5942806,26.6683333,67.05,99,54,2.26,2023-09-24 20:36:31
265,Guabiraba,BR,-8.6716461,-35.7225868,70.36,97,50,0.43,2023-09-24 20:36:32
266,Glace Bay,CA,46.1949393,-59.9561999,51.06,92,40,6.91,2023-09-24 20:36:32
267,Dunedin,NZ,-45.8740984,170.5035755,51.8,58,3,8.99,2023-09-24 20:36:33
268,Ghat,LY,24.9626299,10.1797167,83.05,16,0,6.62,2023-09-24 20:36:33
269,Puerto Ayacucho,VE,5.6576119,-67.6043921,75.51,92,82,2.98,2023-09-24 20:36:34
270,Pyt'-Yakh,RU,60.755116,72.839981,55.18,81,12,6.17,2023-09-24 20:36:34
271,Al Azraq al Shamali,JO,31.8825,36.829722,71.89,50,0,7.78,2023-09-24 20:36:35
272,Moose Jaw,CA,50.401515,-105.542908,53.8,82,100,5.75,2023-09-24 20:36:36
273,Whangarei,NZ,-35.7275268,174.3194202,58.41,85,100,3.56,2023-09-24 20:36:36
274,Necochea,AR,-38.5545494,-58.7392624,41.16,69,31,2.26,2023-09-24 20:36:37
275,Opuwo,NA,-18.0550384,13.8387366,57.7,29,21,2.48,2023-09-24 20:36:37
276,Camocim,BR,-2.9009918,-40.8427389,77.29,88,4,12.44,2023-09-24 20:36:38
277,Guerrero Negro,MX,27.9709506,-114.036389,70.05,77,8,17.6,2023-09-24 20:36:38
278,Bonthe,SL,7.527274,-12.501955,77.45,87,98,5.57,2023-09-24 20:36:39
279,Nový Bydžov,CZ,50.2417701,15.4907692,52.18,86,42,5.64,2023-09-24 20:36:40
280,Karratha,AU,-20.7370067,116.8478592,92.5,23,4,14.09,2023-09-24 20:36:40
281,Hawera,NZ,-39.5893462,174.2837207,56.23,88,100,18.05,2023-09-24 20:36:41
282,Tigaon,IN,21.2974592,80.3381905,81.09,80,86,4.07,2023-09-24 20:36:41
283,Saipan,US,15.1909825,145.746743003024,84.4,74,40,10.36,2023-09-24 20:36:42
284,Belmonte,ES,39.5592831,-2.7038117,60.58,57,5,7.11,2023-09-24 20:36:42
285,EYL/ DAAWAD,SO,7.9806632,49.8187816,80.96,62,43,16.87,2023-09-24 20:36:43
286,Kununurra,AU,-15.7730916,128.738839,94.91,34,21,8.05,2023-09-24 20:36:43
287,Dudinka,RU,69.406067,86.175072,36.66,98,100,23.76,2023-09-24 20:36:44
288,Usinsk,RU,65.995731,57.5571267,53.06,92,100,9.78,2023-09-24 20:36:44
289,Halifax,CA,44.648618,-63.5859487,55.54,95,100,2.3,2023-09-24 20:36:45
290,El Tigre,VE,8.8856183,-64.2486608,78.42,73,87,9.17,2023-09-24 20:36:45
291,Yangor,NR,-0.5381331,166.9114869,84.27,73,63,7.18,2023-09-24 20:36:46
292,Yekaterinovka,RU,47.5404133,38.3859883,61.81,47,0,10.69,2023-09-24 20:36:46
293,Artigues,FR,42.8038,2.21212,60.06,52,66,4.99,2023-09-24 20:36:47
294,Saumalkol',KZ,53.292072,68.105461,58.95,78,60,9.26,2023-09-24 20:36:47
295,Puerto Armuelles,PA,8.2725603,-82.8604458,84.34,74,89,1.01,2023-09-24 20:36:48
296,Halle (Saale),DE,51.4825041,11.9705452,48.18,91,0,8.05,2023-09-24 20:36:49
297,Arkhara,RU,49.4224283,130.0858308,62.42,65,100,11.07,2023-09-24 20:36:49
298,Weno,FM,7.4401133999999995,151.85698576823683,88.65,75,100,9.22,2023-09-24 20:36:50
299,Baykalovo,RU,64.5788836,40.2618292,49.93,96,82,6.06,2023-09-24 20:36:50
300,El Mhamid,MA,30.1283553,-6.8834025,77.88,15,0,4.25,2023-09-24 20:36:51
301,Susanville,US,40.4162842,-120.653006,61.83,33,0,8.05,2023-09-24 20:36:51
302,Hassi Messaoud,DZ,31.6957444,6.0604297,74.88,53,0,8.05,2023-09-24 20:36:52
303,Cherdyn,RU,60.4046807,56.4752752,54.05,64,5,8.32,2023-09-24 20:36:52
304,San Nicolas Tolentino,MX,19.3495128,-99.582417,62.6,48,0,11.5,2023-09-24 20:36:53
305,Catabola,AO,-12.142243,17.2856051,69.03,53,64,3.4,2023-09-24 20:36:53
306,Gaspésie,CA,48.6580556,-65.7527778,42.87,91,24,7.09,2023-09-24 20:36:54
307,Timimoun,DZ,29.2605117,0.2285923,80.98,32,0,12.66,2023-09-24 20:36:54
308,Kupang,ID,-10.1632209,123.6017755,90.01,51,20,12.66,2023-09-24 20:36:55
309,Afaahiti,FR,-17.7390418,-149.28997267755395,76.12,85,100,21.59,2023-09-24 20:36:55
310,Vangaindrano,MG,-23.3503159,47.6043136,67.84,86,8,5.37,2023-09-24 20:36:56
311,Barreirinhas,BR,-2.7541271,-42.8259693,77.47,86,0,7.18,2023-09-24 20:36:56
312,Fisterra,ES,42.9064771,-9.263789,63.73,89,90,2.64,2023-09-24 20:36:57
313,Tirumullaivasal,IN,11.2417391,79.8428846,83.93,70,100,6.35,2023-09-24 20:36:57
314,Victoria Falls,ZW,-17.934681,25.825216,68.72,33,11,2.59,2023-09-24 20:36:58
315,Tralee,IE,52.2692835,-9.7054085,55.36,88,67,14.03,2023-09-24 20:36:59
316,Springbok,ZA,-29.6659872,17.8825119,46.99,90,100,11.23,2023-09-24 20:36:59
317,Cândido de Abreu,BR,-24.5747463,-51.3432207,73.13,74,28,1.99,2023-09-24 20:37:00
318,Buala,SB,-8.145546,159.5930366,84.2,64,97,9.24,2023-09-24 20:37:00
319,Bétérou,BJ,9.2021611,2.2736894,71.35,97,86,1.28,2023-09-24 20:37:01
320,Campbell River,CA,50.023071,-125.2441538,55.08,100,100,12.66,2023-09-24 20:37:01
321,Shakawe,BW,-18.363276,21.839848,77.45,21,84,8.59,2023-09-24 20:37:02
322,Tanjung Pandan,ID,-2.7422808,107.6544753,91.42,46,95,10.56,2023-09-24 20:37:02
323,Williston,US,48.1465457,-103.621814,62.04,81,12,3.0,2023-09-24 20:37:03
324,Hampton Bays,US,40.8689892,-72.5175893,62.38,97,100,8.05,2023-09-24 20:37:03
325,Kulhudhuffushi,MV,6.6233167,73.06946631896413,82.83,77,100,13.04,2023-09-24 20:37:04
326,Parroquia Puerto Baquerizo Moreno,EC,-0.902599,-89.610191,75.88,75,97,8.79,2023-09-24 20:37:05
327,Lincoln,US,40.8088861,-96.7077751,64.22,72,0,1.01,2023-09-24 20:37:05
328,Robertsport,LR,6.75257,-11.36695,76.32,90,100,7.02,2023-09-24 20:37:06
329,Reggane,DZ,26.7207267,0.1751507,92.93,19,54,16.75,2023-09-24 20:37:06
330,Natal,BR,-5.805398,-35.2080905,75.4,94,20,5.75,2023-09-24 20:37:07
331,Mont-Laurier,CA,46.5524071,-75.4968899,51.51,75,0,3.69,2023-09-24 20:37:08
332,Viñales,CU,22.616537,-83.709023,74.97,89,60,4.09,2023-09-24 20:37:08
333,Antsohihy,MG,-14.8775272,47.98715,73.74,58,0,6.85,2023-09-24 20:37:09
334,Bellmere,AU,-27.076831499999997,152.8993461900601,71.31,39,34,7.78,2023-09-24 20:37:09
335,Kayangel,PW,8.082249050000001,134.7189632525487,82.22,81,100,27.04,2023-09-24 20:37:10
336,Andalgala,AR,-27.5830261,-66.3154994,64.92,80,62,5.39,2023-09-24 20:37:11
337,Luza,RU,60.630329,47.255405,57.04,93,100,8.55,2023-09-24 20:37:11
338,Fallon,FR,47.5075937,6.4807726,47.91,84,47,3.6,2023-09-24 20:37:12
339,Padang,ID,-0.9247587,100.3632561,84.24,74,20,4.61,2023-09-24 20:37:12
340,Al-Ubayyid,SD,13.183366,30.222559,78.98,65,100,14.79,2023-09-24 20:37:13
341,Palm Springs,US,33.8246269,-116.540303,84.2,25,0,6.91,2023-09-24 20:37:13
342,San Luis de la Loma,MX,17.270556,-100.893889,82.89,85,50,3.04,2023-09-24 20:37:14
343,Cape Town,ZA,-33.928992,18.417396,57.72,88,75,33.38,2023-09-24 20:37:15
344,Nar'yan-Mar,RU,67.6380175,53.0071044,44.37,86,99,6.2,2023-09-24 20:37:15
345,Coquimbo,CL,-29.9531928,-71.3379884,55.27,87,20,1.14,2023-09-24 20:37:16
346,Mirador,BR,-23.257015,-52.7756432,82.92,45,98,1.41,2023-09-24 20:37:16
347,Bawiti,EG,28.35182,28.862992,70.45,67,0,5.37,2023-09-24 20:37:17
348,Beau Vallon,MU,-20.429757199999997,57.711752445378806,73.81,73,40,3.44,2023-09-24 20:37:17
349,Turbat,PK,26.0027894,63.0505609,87.12,9,0,19.93,2023-09-24 20:37:18
350,San Antonio de Palé,GQ,-1.4046406,5.63255,75.94,85,100,11.25,2023-09-24 20:37:18
351,Acajutla,SV,13.5897967,-89.8297601,79.88,82,98,4.74,2023-09-24 20:37:19
352,Cardoso,BR,-20.080447,-49.9139767,85.59,34,83,3.76,2023-09-24 20:37:19
353,Barra,BR,-11.0892702,-43.1420453,78.87,50,58,4.79,2023-09-24 20:37:20
354,Francisco Sá,BR,-16.4777211,-43.4942587,78.8,39,50,5.08,2023-09-24 20:37:20
355,Howrah,IN,22.5736296,88.3251045,85.95,79,75,3.44,2023-09-24 20:37:21
356,Saint-Joseph,FR,49.5344534,-1.529802,63.16,94,100,6.91,2023-09-24 20:37:21
357,Bestobe,CN,43.4439204,83.2594981,57.72,53,70,3.42,2023-09-24 20:37:22
358,Taza,MA,34.230155,-4.010104,68.13,80,0,5.93,2023-09-24 20:37:23
359,Quitilipi,AR,-26.8732221,-60.21298971406674,74.82,85,7,9.78,2023-09-24 20:37:23
360,Gebeit,SD,21.066667,36.316667,83.8,27,5,3.13,2023-09-24 20:37:24
361,Lamar,US,38.0872306,-102.6207497,62.01,48,0,9.22,2023-09-24 20:37:24
362,Thinadhoo,MV,0.5326429,72.99714160821568,82.27,74,15,5.88,2023-09-24 20:37:25
363,Great Yarmouth,GB,52.6071742,1.7314845,62.28,78,58,18.12,2023-09-24 20:37:26
364,Farasan,SA,16.702222,42.118333,87.55,77,36,7.09,2023-09-24 20:37:26
365,Villaquilambre,ES,42.6469775,-5.5596277,51.37,77,1,2.3,2023-09-24 20:37:27
366,Tete,MZ,-16.1603989,33.5871474,77.58,59,9,4.81,2023-09-24 20:37:28
367,Esmeraldas,BR,-19.7613111,-44.3145945,79.9,49,17,4.27,2023-09-24 20:37:29
368,Punta Cardón,VE,11.6175102,-70.2116906,84.81,72,97,23.4,2023-09-24 20:37:29
369,Alice Town,BS,25.3509316,-76.4848097,83.46,80,18,12.01,2023-09-24 20:37:30
370,Mokhsogollokh,RU,61.397861,128.947861,50.32,53,83,1.14,2023-09-24 20:37:30
371,São Vicente,BR,-23.9603686,-46.3847024,80.31,94,93,11.3,2023-09-24 20:37:31
372,Sandakan,MY,5.8391274,118.1158598,87.1,70,20,7.0,2023-09-24 20:37:31
373,Tabatinga,BR,-21.7373768,-48.6880522,86.81,29,99,4.45,2023-09-24 20:37:32
374,Axim,GH,4.865362,-2.242169,76.28,91,91,5.88,2023-09-24 20:37:33
375,Ashgabat,TM,37.9404648,58.3823487,62.35,39,0,2.3,2023-09-24 20:37:33
376,Nelson Bay,AU,-32.7218138,152.1440889,71.44,65,0,10.0,2023-09-24 20:37:34
377,Mirny,RU,62.541077,113.978584,54.79,58,36,1.99,2023-09-24 20:37:34
378,Margate,GB,51.3878174,1.3819699,62.55,75,75,4.0,2023-09-24 20:37:35
379,Bredasdorp,ZA,-34.533055,20.042778,54.81,97,33,2.77,2023-09-24 20:37:35
380,Kabwe,ZM,-14.4434056,28.4465166,65.55,45,14,5.23,2023-09-24 20:37:36
381,Oulainen,FI,64.2667732,24.8000331,41.81,96,54,7.29,2023-09-24 20:37:36
382,Bukhara,UZ,39.7675529,64.4231326,57.18,54,0,6.91,2023-09-24 20:37:37
383,Fuvahmulah,MV,-0.2948408,73.4240650441918,82.24,76,53,8.46,2023-09-24 20:37:37
384,El Nido,PH,11.1800079,119.3904846,84.97,71,99,9.73,2023-09-24 20:37:38
385,Tekeli,KZ,44.8615202,78.7629423,54.03,40,6,3.27,2023-09-24 20:37:39
386,Mehran,IR,33.1236709,46.1667015,91.33,12,4,4.92,2023-09-24 20:37:39
387,Emerald,AU,-23.5263118,148.1618622,80.31,31,0,12.33,2023-09-24 20:37:40
388,Crane,US,31.39572,-102.3521214,85.48,29,0,6.29,2023-09-24 20:37:40
389,Tocopilla,CL,-22.0887189,-70.1960657,64.29,79,47,3.96,2023-09-24 20:37:41
390,Shushtar,IR,32.0547874,48.8456666,91.54,13,0,2.75,2023-09-24 20:37:41
391,Franceville,GA,-1.634363,13.589513,70.84,96,39,2.06,2023-09-24 20:37:42
392,Changping District,CN,40.2196456,116.2250912,67.64,48,100,5.95,2023-09-24 20:37:42
393,eMbalenhle,ZA,-26.5416667,29.0747222,58.39,83,92,6.82,2023-09-24 20:37:43
394,Trevelin,AR,-43.0791069,-71.4640493,33.24,89,8,4.7,2023-09-24 20:37:43
395,Saint-Pierre,FR,48.3832725,7.4718731,47.14,86,19,1.36,2023-09-24 20:37:44
396,Bairnsdale,AU,-37.8254509,147.6304752,72.0,52,98,3.74,2023-09-24 20:37:44
397,Kalmunai,LK,7.4131557,81.8269327,85.66,68,32,2.13,2023-09-24 20:37:45
398,East London,ZA,-33.0191604,27.8998573,67.35,94,100,23.02,2023-09-24 20:37:45
399,Pierre,US,44.3683644,-100.351136,62.82,84,75,6.91,2023-09-24 20:37:46
400,Arraial do Cabo,BR,-22.9662839,-42.024427,73.29,88,0,6.91,2023-09-24 20:37:46
401,Isangel,VU,-19.5410863,169.2810885,79.83,69,20,9.22,2023-09-24 20:37:47
402,Nuku'alofa,TO,-21.1343401,-175.201808,79.14,69,20,20.71,2023-09-24 20:37:48
403,Camariñas,ES,43.1297203,-9.1851613,63.91,89,81,1.5,2023-09-24 20:37:48
404,Tisul,RU,55.763851,88.3130216,37.47,81,100,2.06,2023-09-24 20:37:49
405,Cidreira,BR,-30.1657063,-50.218331,62.74,90,100,6.35,2023-09-24 20:37:49
406,Mangrol,IN,21.575642,72.8565391,82.83,76,68,4.27,2023-09-24 20:37:50
407,Babu,CN,24.4155435,111.5464663,88.66,67,11,1.07,2023-09-24 20:37:50
408,Inari,FI,68.9062456,27.0260771,44.78,95,100,9.35,2023-09-24 20:37:51
409,Houlton,US,46.1251286,-67.8407944,46.8,93,0,0.0,2023-09-24 20:37:51
410,Antsiranana,MG,-12.2779134,49.2913394,72.36,73,75,16.11,2023-09-24 20:37:52
411,Pont-Rouge,CA,46.756563,-71.697807,50.92,72,0,6.98,2023-09-24 20:37:52
412,Hanceville,US,34.0623275,-86.7627004,67.93,47,100,3.69,2023-09-24 20:37:53
413,Imbituba,BR,-28.241827,-48.6643444,65.17,95,97,5.23,2023-09-24 20:37:53
414,Iguaí,BR,-14.752754,-40.089417,67.75,98,69,3.02,2023-09-24 20:37:54
415,Maridi,SS,4.9143633,29.4645282,67.14,99,84,3.02,2023-09-24 20:37:54
416,Arenápolis,BR,-14.460185,-56.8436668,83.26,30,1,4.72,2023-09-24 20:37:55
417,Kill Devil Hills,US,36.0321186,-75.6776147,71.87,91,40,6.91,2023-09-24 20:37:55
418,Meulaboh,ID,4.1481951,96.1339107,79.88,83,83,4.16,2023-09-24 20:37:56
419,São Gabriel da Cachoeira,BR,-0.1249715,-67.0813855,71.13,94,100,2.08,2023-09-24 20:37:56
420,Makokou,GA,0.5618897,12.8525689,68.49,99,92,2.68,2023-09-24 20:37:57
421,Uyuni,BO,-20.4628406,-66.8239072,51.85,27,1,3.22,2023-09-24 20:37:57
422,Bardai,TD,21.3549506,17.0005053,74.16,15,1,4.81,2023-09-24 20:37:58
423,Sioux City,US,42.4966815,-96.4058782,62.49,78,0,5.75,2023-09-24 20:37:59
424,Kirakira,SB,-10.4568963,161.9201736,84.2,63,100,15.12,2023-09-24 20:37:59
425,Harran,TR,36.8710059,39.0251364,79.11,31,0,2.8,2023-09-24 20:38:00
426,Scarborough,GB,54.2820009,-0.4011868,58.64,86,34,8.01,2023-09-24 20:38:00
427,Kapuskasing,CA,49.416667,-82.433333,55.4,71,20,6.91,2023-09-24 20:38:01
428,Nadym,RU,65.5336238,72.5113955,53.8,87,98,12.86,2023-09-24 20:38:01
429,Wenling,CN,28.3761941,121.3808408,83.61,77,33,7.92,2023-09-24 20:38:02
430,Ust-Tsilma,RU,65.438683,52.156208,53.26,92,100,5.26,2023-09-24 20:38:02
431,Gadani,IN,23.5388092,69.0469264,82.36,70,72,14.03,2023-09-24 20:38:03
432,Kavaratti,IN,10.5672203,72.6394636,82.62,74,67,12.5,2023-09-24 20:38:04
433,Cumaribo,CO,4.4471495,-69.7975845,74.73,90,88,3.13,2023-09-24 20:38:04
434,Wuwei,CN,37.928881,102.6359886,64.72,36,98,11.03,2023-09-24 20:38:05
435,Kailua-Kona,US,19.641941,-155.996933,79.65,78,100,8.05,2023-09-24 20:38:05
436,Taroa,CO,12.4300098,-71.5763149,83.95,82,100,21.27,2023-09-24 20:38:06
437,Zangguy,CN,37.3567795,78.7946646,66.47,15,99,5.79,2023-09-24 20:38:06
438,Whakatāne,NZ,-37.9519223,176.9945977,57.54,99,100,5.01,2023-09-24 20:38:07
439,Pacific Grove,US,36.6211149,-121.917794,58.48,83,0,3.44,2023-09-24 20:38:07
440,Loa Janan Ulu,ID,-0.5876152,117.0887392,92.46,43,57,5.57,2023-09-24 20:38:08
441,Susuman,RU,62.779732,148.15361,35.6,53,95,7.56,2023-09-24 20:38:08
442,Berlin,DE,52.5170365,13.3888599,50.4,95,0,3.44,2023-09-24 20:38:09
443,Nerchinsk,RU,51.97694,116.588341,52.2,84,100,9.8,2023-09-24 20:38:10
444,Vadsø,NO,70.22671985,29.78277929931153,39.27,87,75,5.75,2023-09-24 20:38:10
445,Ishigaki,JP,24.3382831,124.1577569,86.23,84,40,10.36,2023-09-24 20:38:11
446,Prestea,GH,5.4336458,-2.1423648,72.36,98,58,2.15,2023-09-24 20:38:11
447,Bothaville,ZA,-27.388889,26.616667,60.01,58,99,9.93,2023-09-24 20:38:12
448,Matthew Town,BS,20.9504006,-73.6726951,84.47,79,100,14.2,2023-09-24 20:38:12
449,Pariaman,ID,-0.6263889,100.1177778,84.25,67,96,7.16,2023-09-24 20:38:13
450,Taoudeni,ML,22.6762333,-3.9805269,91.92,12,16,3.11,2023-09-24 20:38:13
451,Tofol,FM,5.326022,163.0087193,87.58,70,75,3.44,2023-09-24 20:38:14
452,Fuling,CN,29.7065405,107.3910809,70.03,94,100,2.84,2023-09-24 20:38:14
453,Calingasta,CL,-30.0231843,-70.6921467,67.21,39,94,1.25,2023-09-24 20:38:15
454,Maiyama,NG,12.0825973,4.3677034,74.14,86,72,7.09,2023-09-24 20:38:16
455,Kerikeri,NZ,-35.2272607,173.9491061,57.16,79,100,4.34,2023-09-24 20:38:16
456,Fort Bragg,US,35.140311,-79.15414649804102,72.12,81,100,5.75,2023-09-24 20:38:17
457,Vorkuta,RU,67.5035662,64.0627028,45.57,79,100,9.24,2023-09-24 20:38:17
458,Tuburan,PH,10.7285353,123.8254215,91.49,72,100,5.99,2023-09-24 20:38:18
459,Santa Marinella,IT,42.0354641,11.867938,63.19,75,30,21.18,2023-09-24 20:38:18
460,Jatobá,BR,-5.8195391,-44.223188,84.24,34,76,4.9,2023-09-24 20:38:19
461,Yaren District,NR,-0.5471014,166.9164002,84.34,73,63,7.23,2023-09-24 20:38:20
462,Matoury,FR,4.8496712,-52.3268695,76.98,94,0,2.3,2023-09-24 20:38:20
463,Mane,FR,43.0818375,0.9504994,56.28,57,10,4.18,2023-09-24 20:38:21
464,Batticaloa,LK,7.7356027,81.6941956,84.79,68,42,2.59,2023-09-24 20:38:21
465,Chuí,BR,-33.6895237,-53.454704,51.04,70,99,8.05,2023-09-24 20:38:22
466,Essaouira,MA,31.5118281,-9.7620903,65.75,94,0,4.61,2023-09-24 20:38:23
467,Riversdale,CA,45.4228629,-63.0423115,46.51,91,100,2.19,2023-09-24 20:38:23
468,Tolanaro,MG,-25.0296943,46.9903888,62.38,94,20,0.0,2023-09-24 20:38:24
469,Paranhos,BR,-23.8927851,-55.4287213,84.96,34,99,4.56,2023-09-24 20:38:24
470,Fada,NG,9.5985575,8.442205380378004,64.09,95,74,1.66,2023-09-24 20:38:25
471,Sirjan,IR,29.4458687,55.6704717,71.2,15,0,5.82,2023-09-24 20:38:25
472,Illapel,CL,-31.6326932,-71.1683039,55.76,63,1,2.19,2023-09-24 20:38:26
473,Bubaque,GW,11.29969595,-15.833543367212418,82.45,77,28,7.52,2023-09-24 20:38:26
474,Kasongo Lunda,CD,-6.4786095,16.8168133,70.84,93,93,1.86,2023-09-24 20:38:27
475,Lisakovsk,KZ,52.545864,62.489201,62.17,65,0,4.18,2023-09-24 20:38:28
476,Suva,FJ,-18.1415884,178.4421662,81.88,78,75,12.66,2023-09-24 20:38:28
477,Argo,US,33.6882155,-86.50140447889957,67.19,86,99,2.91,2023-09-24 20:38:29
478,São João da Barra,BR,-21.6348588,-41.0487079,71.55,93,39,10.74,2023-09-24 20:38:29
479,Westport,US,41.1414855,-73.3578955,60.66,92,100,14.97,2023-09-24 20:38:30
480,Farmington,US,44.6402434,-93.1435497,62.78,91,75,0.0,2023-09-24 20:38:30
481,Lorengau,PG,-2.0329567,147.2789185,79.36,88,100,11.9,2023-09-24 20:38:31
482,Xilinhot City,CN,43.9312058,116.0789127,68.0,38,95,13.42,2023-09-24 20:38:31
483,Tours,FR,47.3900474,0.6889268,48.78,93,0,2.3,2023-09-24 20:38:32
484,Wajir,KE,1.7504651,40.0594959,75.15,78,20,4.61,2023-09-24 20:38:33
485,Vilyuchinsk,RU,52.931834,158.405383,57.29,65,97,6.15,2023-09-24 20:38:33
486,Gadzhiyevo,RU,69.250359,33.315281,40.53,86,97,14.65,2023-09-24 20:38:34
487,Holualoa CDP,US,19.6238149,-155.9536379,75.51,79,100,8.05,2023-09-24 20:38:34
488,Kibre Mengist,ET,5.8733621,38.9953839,60.67,84,100,2.35,2023-09-24 20:38:35
489,Vytegra,RU,61.006498,36.4514921,50.83,97,24,9.31,2023-09-24 20:38:35
490,Newnham,GB,52.0209937,-0.1853037,61.38,92,97,5.99,2023-09-24 20:38:36
491,Taro,ID,-8.3862137,115.2800168,74.86,37,84,5.88,2023-09-24 20:38:36
492,Tual,ID,-5.6389933,132.7429249,77.52,81,68,15.23,2023-09-24 20:38:37
493,Ormara,PK,25.2105634,64.6374914,82.74,36,28,5.86,2023-09-24 20:38:38
494,Cherlak,RU,54.154067,74.7974987,58.6,76,87,8.5,2023-09-24 20:38:38
495,Stratford-upon-Avon,GB,52.1927803,-1.70634,57.92,95,23,12.17,2023-09-24 20:38:39
496,Flying Fish Cove,AU,-10.4213344,105.674413,81.03,78,100,16.11,2023-09-24 20:38:39
497,Mumbwa,ZM,-14.9850046,27.0613764,69.78,37,9,9.13,2023-09-24 20:38:40
498,São Paulo de Olivença,BR,-3.4650627,-68.9468462,76.08,83,9,1.9,2023-09-24 20:38:40
499,Mawu,CN,34.430659,104.917589,52.84,84,100,2.35,2023-09-24 20:38:41
500,Likiep Atoll,MH,9.9230228,169.0972652,84.49,77,87,15.5,2023-09-24 20:38:41
501,Lannion,FR,48.7322183,-3.4587994,60.93,95,41,8.21,2023-09-24 20:38:42
502,Lycksele kommun,SE,64.6,18.166667,40.91,88,100,5.86,2023-09-24 20:38:43
503,Alotau,PG,-10.3060931,150.4464005,75.67,91,100,7.81,2023-09-24 20:38:43
504,Smithers,CA,54.7792074,-127.1760991,52.12,62,20,4.61,2023-09-24 20:38:44
505,Amga,RU,60.894218,131.97998,51.03,46,19,1.79,2023-09-24 20:38:44
506,Port Hedland,AU,-20.3111814,118.5801181,100.44,12,6,16.11,2023-09-24 20:38:45
507,Kachug,RU,53.960819,105.885147,51.3,89,100,6.44,2023-09-24 20:38:45
508,Cabedelo,BR,-6.97324,-34.8351609,77.68,79,22,10.8,2023-09-24 20:38:46
509,Forest - Vorst,BE,50.811795,4.3181187,52.81,83,0,11.5,2023-09-24 20:38:46
510,Yacuiba,BO,-22.0136831,-63.6781103,76.77,57,5,3.91,2023-09-24 20:38:47
511,Cadale,SO,2.7616074,46.3220127,78.39,82,11,14.7,2023-09-24 20:38:47
512,Illizi,DZ,26.504191,8.479926,80.28,29,78,4.12,2023-09-24 20:38:48
513,Nogliki,RU,51.7953617,143.1365077,65.17,57,12,5.99,2023-09-24 20:38:48
514,Hugo,US,45.159967,-92.9932734,62.33,90,75,1.01,2023-09-24 20:38:49
515,Aral City,CN,40.5421865,81.2770789,67.03,29,26,5.57,2023-09-24 20:38:50
516,Ciudad de Lazaro Cardenas,MX,20.4621605,-97.6990645,73.96,89,35,2.39,2023-09-24 20:38:50
517,Altai,MN,48.3035739,89.5145424,25.47,65,43,8.57,2023-09-24 20:38:51
518,Alofi,NU,-19.0534159,-169.919199,77.5,61,75,20.71,2023-09-24 20:38:51
519,Oloirobi,TZ,-3.205949,35.4452102,49.5,86,88,5.61,2023-09-24 20:38:52
520,Tutóia,BR,-2.761413,-42.275531,79.18,84,1,12.39,2023-09-24 20:38:52
521,La Gi,VN,10.6588219,107.7731192,82.89,76,100,12.39,2023-09-24 20:38:53
522,Kristiansund,NO,63.216819400000006,7.545258996501891,57.85,67,100,6.91,2023-09-24 20:38:53
523,Dhar,IN,22.5972396,75.306565,78.04,83,84,6.24,2023-09-24 20:38:54
524,Taounate,MA,34.538476,-4.635994,71.08,62,3,2.06,2023-09-24 20:38:55
525,Pereiaslav,UA,50.0643984,31.4447327,60.91,49,23,4.9,2023-09-24 20:38:55
526,Rovnoye,RU,50.775948,46.057549,61.97,54,8,5.03,2023-09-24 20:38:56
527,Yeosu-si,KR,34.7546257,127.659859,73.65,71,77,12.55,2023-09-24 20:38:56
528,Zapala,AR,-38.9029381,-70.0642572,44.06,55,0,3.78,2023-09-24 20:38:57
529,Tarko-Sale,RU,64.9219991,77.779459,46.0,94,100,21.0,2023-09-24 20:38:57
530,Kuta,ID,-8.7278354,115.1730049,82.02,83,40,9.22,2023-09-24 20:38:58
531,Montepuez,MZ,-13.1253048,39.0016963,69.15,86,23,2.93,2023-09-24 20:38:58
532,Senanga,ZM,-16.104099,23.301807,67.96,37,37,6.58,2023-09-24 20:38:59
533,Novo Aripuanã,BR,-5.125929,-60.373179,83.34,51,68,0.96,2023-09-24 20:38:59
534,Enterprise,US,31.3151708,-85.8552161,70.23,77,0,0.0,2023-09-24 20:39:00
535,Hami,CN,42.817404,93.5142008,55.47,43,100,2.46,2023-09-24 20:39:01
536,Bathsheba,BB,13.2129361,-59.5227245,79.2,89,40,8.05,2023-09-24 20:39:01
537,Myskhako,RU,44.6587755,37.7583424,60.28,76,0,10.94,2023-09-24 20:39:02
538,Baiyin,CN,36.5451563,104.1355419,56.12,63,93,4.83,2023-09-24 20:39:02
539,Ar Ruways,YE,16.860934,43.352128,76.15,37,7,5.84,2023-09-24 20:39:03
540,Sorong,ID,-0.8634105,131.2544805,84.18,68,99,15.57,2023-09-24 20:39:03
